{
"type": "FeatureCollection",
"name": "places",
"crs": { "type": "name", "properties": { "name": "urn:ogc:def:crs:OGC:1.3:CRS84" } },
"features": [
{ "type": "Feature", "properties": { "location_espanol": "San Diego", "location_english": "San Diego", "collect": false, "real_site": null, "date_arrive": "1940-03-13", "date_depart": "1940-03-14" }, "geometry": { "type": "Point", "coordinates": [ -117.18523, 32.71662 ] } },
{ "type": "Feature", "properties": { "location_espanol": "Bahía de Magdalena", "location_english": "Magdalena Bay", "collect": false, "real_site": null, "date_arrive": "1940-03-16", "date_depart": "1940-03-16" }, "geometry": { "type": "Point", "coordinates": [ -111.99883, 24.58293 ] } },
{ "type": "Feature", "properties": { "location_espanol": "Cabo San Lucas", "location_english": "Cape San Lucas", "collect": true, "real_site": true, "date_arrive": "1940-03-17", "date_depart": "1940-03-18" }, "geometry": { "type": "Point", "coordinates": [ -109.903, 22.88 ] } },
{ "type": "Feature", "properties": { "location_espanol": "Bahia Pulmo Reef", "location_english": "Cabo Pulmo", "collect": true, "real_site": false, "date_arrive": "1940-03-19", "date_depart": "1940-03-18" }, "geometry": { "type": "Point", "coordinates": [ -109.424271, 23.437786 ] } },
{ "type": "Feature", "properties": { "location_espanol": "Punta Pescadero", "location_english": "Punta Pescadero", "collect": false, "real_site": true, "date_arrive": "1940-03-19", "date_depart": "1940-03-20" }, "geometry": { "type": "Point", "coordinates": [ -109.6971, 23.7965 ] } },
{ "type": "Feature", "properties": { "location_espanol": "Punta Lobos, Isla Espiritu Santo", "location_english": "Punta Lobos, Isla Espiritu Santo", "collect": true, "real_site": true, "date_arrive": "1940-03-20", "date_depart": "1940-03-20" }, "geometry": { "type": "Point", "coordinates": [ -110.293, 24.459 ] } },
{ "type": "Feature", "properties": { "location_espanol": "Caimancito, La Paz", "location_english": "Caimancito, La Paz", "collect": true, "real_site": true, "date_arrive": "1940-03-21", "date_depart": "1940-03-22" }, "geometry": { "type": "Point", "coordinates": [ -110.3, 24.207 ] } },
{ "type": "Feature", "properties": { "location_espanol": "Isolote Cayo, Isla San José", "location_english": "Amatorajada, San José Island", "collect": false, "real_site": true, "date_arrive": "1940-03-23", "date_depart": "1940-03-23" }, "geometry": { "type": "Point", "coordinates": [ -110.604, 24.876 ] } },
{ "type": "Feature", "properties": { "location_espanol": "Punta San Marcial", "location_english": "Marcial Reef", "collect": true, "real_site": true, "date_arrive": "1940-03-23", "date_depart": "1940-03-24" }, "geometry": { "type": "Point", "coordinates": [ -111.014, 25.505 ] } },
{ "type": "Feature", "properties": { "location_espanol": "Puerto Escondido", "location_english": "Puerto Escondido", "collect": true, "real_site": true, "date_arrive": "1940-03-25", "date_depart": "1940-03-26" }, "geometry": { "type": "Point", "coordinates": [ -111.306, 25.813 ] } },
{ "type": "Feature", "properties": { "location_espanol": "Isla Coronado", "location_english": "Coronado Island", "collect": true, "real_site": true, "date_arrive": "1940-03-27", "date_depart": "1940-03-27" }, "geometry": { "type": "Point", "coordinates": [ -111.281, 26.11 ] } },
{ "type": "Feature", "properties": { "location_espanol": "Bahia Concepion", "location_english": "Concepción Bay", "collect": true, "real_site": false, "date_arrive": "1940-03-28", "date_depart": "1940-03-28" }, "geometry": { "type": "Point", "coordinates": [ -111.835413, 26.71289 ] } },
{ "type": "Feature", "properties": { "location_espanol": "Cabo San Lucas", "location_english": "San Lucas Cove", "collect": true, "real_site": false, "date_arrive": "1940-03-29", "date_depart": "1940-03-30" }, "geometry": { "type": "Point", "coordinates": [ -112.197035, 27.218907 ] } },
{ "type": "Feature", "properties": { "location_espanol": "Bahía de San Carlos", "location_english": "San Carlos Bay", "collect": false, "real_site": true, "date_arrive": "1940-03-31", "date_depart": "1940-03-31" }, "geometry": { "type": "Point", "coordinates": [ -112.72, 27.824 ] } },
{ "type": "Feature", "properties": { "location_espanol": "Bahía San Francisquito", "location_english": "San Francisquito Bay", "collect": false, "real_site": true, "date_arrive": "1940-03-31", "date_depart": "1940-03-31" }, "geometry": { "type": "Point", "coordinates": [ -112.88, 28.451 ] } },
{ "type": "Feature", "properties": { "location_espanol": "Bahía del Los Angeles", "location_english": "Angeles Bay", "collect": true, "real_site": false, "date_arrive": "1940-04-01", "date_depart": "1940-04-01" }, "geometry": { "type": "Point", "coordinates": [ -113.516088, 28.942569 ] } },
{ "type": "Feature", "properties": { "location_espanol": "Puerto Refugio", "location_english": "Puerto Refugio", "collect": false, "real_site": true, "date_arrive": "1940-04-02", "date_depart": "1940-04-03" }, "geometry": { "type": "Point", "coordinates": [ -113.535, 29.542 ] } },
{ "type": "Feature", "properties": { "location_espanol": "Isla Tiburón", "location_english": "Tiburón Island", "collect": false, "real_site": true, "date_arrive": "1940-04-03", "date_depart": "1940-04-03" }, "geometry": { "type": "Point", "coordinates": [ -112.354, 28.763 ] } },
{ "type": "Feature", "properties": { "location_espanol": "Puerto San Carlos", "location_english": "Puerto San Carlos", "collect": false, "real_site": true, "date_arrive": "1940-04-04", "date_depart": "1940-04-04" }, "geometry": { "type": "Point", "coordinates": [ -111.063, 27.941 ] } },
{ "type": "Feature", "properties": { "location_espanol": "Guyamas", "location_english": "Guyamas", "collect": false, "real_site": null, "date_arrive": "1940-04-05", "date_depart": "1940-04-08" }, "geometry": { "type": "Point", "coordinates": [ -110.859074, 27.911067 ] } },
{ "type": "Feature", "properties": { "location_espanol": "Esterio de la Luna", "location_english": "Esterio de la Luna", "collect": false, "real_site": false, "date_arrive": "1940-04-09", "date_depart": "1940-04-10" }, "geometry": { "type": "Point", "coordinates": [ -109.930298, 27.043057 ] } },
{ "type": "Feature", "properties": { "location_espanol": "Agiabampo", "location_english": "Agiabampo", "collect": true, "real_site": false, "date_arrive": "1940-04-11", "date_depart": "1940-04-11" }, "geometry": { "type": "Point", "coordinates": [ -109.220129, 26.356397 ] } },
{ "type": "Feature", "properties": { "location_espanol": "Bahia de San Gabriel", "location_english": "San Gabriel Bay", "collect": true, "real_site": false, "date_arrive": "1940-04-12", "date_depart": "1940-04-12" }, "geometry": { "type": "Point", "coordinates": [ -110.360678, 24.424178 ] } },
{ "type": "Feature", "properties": { "location_espanol": "Isla de Cedros", "location_english": "Cedros Island", "collect": false, "real_site": null, "date_arrive": "1940-04-13", "date_depart": "1940-04-13" }, "geometry": { "type": "Point", "coordinates": [ -115.1066, 28.064877 ] } }
]
}
